[
  {
    "id": "cinema_1",
    "name": "基隆秀泰影城",
    "type": "首輪",
    "address": "中正區信一路177號",
    "city": "基隆市",
    "district": "中正區",
    "special": "",
    "original_address": "中正區信一路177號（華冠大樓）7至10樓",
    "lng": 121.744792,
    "lat": 25.1309333
  },
  {
    "id": "cinema_2",
    "name": "台北信義威秀影城",
    "type": "首輪、首輪藝術",
    "address": "信義區松壽路16、18號",
    "city": "臺北市",
    "district": "信義區",
    "special": "4DX、THX廳、金馬聯名影廳",
    "original_address": "信義區松壽路16、18號",
    "lng": 121.56654,
    "lat": 25.0356102
  },
  {
    "id": "cinema_3",
    "name": "MUVIE CINEMAS松仁威秀",
    "type": "首輪",
    "address": "信義區松仁路58號",
    "city": "臺北市",
    "district": "信義區",
    "special": "全廳THX、TITAN巨幕廳、MUCROWN頂級影廳",
    "original_address": "信義區松仁路58號10樓（遠百信義A13）",
    "lng": 121.5679505,
    "lat": 25.0367556
  },
  {
    "id": "cinema_4",
    "name": "誠品電影院",
    "type": "首輪、首輪藝術",
    "address": "信義區菸廠路80號",
    "city": "臺北市",
    "district": "信義區",
    "special": "",
    "original_address": "信義區菸廠路80號（誠品生活松菸店）地下2樓",
    "lng": 121.5616125,
    "lat": 25.0446343
  },
  {
    "id": "cinema_5",
    "name": "喜樂時代影城南港店",
    "type": "首輪、首輪藝術",
    "address": "南港區忠孝東路七段299號",
    "city": "臺北市",
    "district": "南港區",
    "special": "",
    "original_address": "南港區忠孝東路七段299號（CityLink南港店）C棟11至14樓",
    "lng": 121.6045939,
    "lat": 25.0525541
  },
  {
    "id": "cinema_6",
    "name": "台北京站威秀影城",
    "type": "首輪",
    "address": "大同區市民大道一段209號",
    "city": "臺北市",
    "district": "大同區",
    "special": "",
    "original_address": "大同區市民大道一段209號（台北京站大樓，與京站時尚廣場台北店共構）5至7樓",
    "lng": 121.5182923,
    "lat": 25.0491295
  },
  {
    "id": "cinema_7",
    "name": "新民生戲院",
    "type": "首輪",
    "address": "松山區民生東路五段190號",
    "city": "臺北市",
    "district": "松山區",
    "special": "",
    "original_address": "松山區民生東路五段190號3樓",
    "lng": 121.5641453,
    "lat": 25.0586876
  },
  {
    "id": "cinema_8",
    "name": "總督影城",
    "type": "首輪",
    "address": "松山區長安東路二段219號",
    "city": "臺北市",
    "district": "松山區",
    "special": "",
    "original_address": "松山區長安東路二段219號3樓",
    "lng": 121.544872,
    "lat": 25.0483627
  },
  {
    "id": "cinema_9",
    "name": "微風影城",
    "type": "首輪",
    "address": "松山區復興南路一段39號",
    "city": "臺北市",
    "district": "松山區",
    "special": "",
    "original_address": "松山區復興南路一段39號（微風廣場）8樓（與索尼影業共同經營）",
    "lng": 121.5452192,
    "lat": 25.0459159
  },
  {
    "id": "cinema_10",
    "name": "哈拉影城",
    "type": "首輪",
    "address": "內湖區康寧路三段72號",
    "city": "臺北市",
    "district": "內湖區",
    "special": "響震椅、FREELAX跨腳影廳、親子電影院",
    "original_address": "內湖區康寧路三段72號（哈啦生活館）3-4樓",
    "lng": 121.6114623,
    "lat": 25.0696916
  },
  {
    "id": "cinema_11",
    "name": "國賓大戲院",
    "type": "首輪",
    "address": "萬華區成都路88號",
    "city": "臺北市",
    "district": "萬華區",
    "special": "巨幕廳（Dolby Atmos）、D-BOX",
    "original_address": "萬華區成都路88號",
    "lng": 121.5045693,
    "lat": 25.0429619
  },
  {
    "id": "cinema_12",
    "name": "樂聲影城",
    "type": "首輪",
    "address": "萬華區武昌街二段85號",
    "city": "臺北市",
    "district": "萬華區",
    "special": "巨幕廳",
    "original_address": "萬華區武昌街二段85號",
    "lng": 121.5048323,
    "lat": 25.045373
  },
  {
    "id": "cinema_13",
    "name": "台北西門町in89豪華數位影城",
    "type": "首輪",
    "address": "萬華區武昌街二段89號",
    "city": "臺北市",
    "district": "萬華區",
    "special": "LUXE A RealD Experience 影廳、Premium COACH廳（Dolby Atmos）",
    "original_address": "萬華區武昌街二段89號",
    "lng": 121.5040534,
    "lat": 25.045536
  },
  {
    "id": "cinema_14",
    "name": "台北獅子林新光影城",
    "type": "首輪",
    "address": "萬華區西寧南路36號",
    "city": "臺北市",
    "district": "萬華區",
    "special": "",
    "original_address": "萬華區西寧南路36號（獅子林商業大樓）4至5樓",
    "lng": 121.5062379,
    "lat": 25.0450439
  },
  {
    "id": "cinema_15",
    "name": "台北真善美劇院",
    "type": "首輪藝術",
    "address": "萬華區漢中街116號",
    "city": "臺北市",
    "district": "萬華區",
    "special": "",
    "original_address": "萬華區漢中街116號（新世界大樓）7樓",
    "lng": 121.5072911,
    "lat": 25.0428605
  },
  {
    "id": "cinema_16",
    "name": "台北西門威秀影城",
    "type": "首輪",
    "address": "萬華區漢中街52號",
    "city": "臺北市",
    "district": "萬華區",
    "special": "",
    "original_address": "萬華區漢中街52號8-11樓",
    "lng": 121.5071127,
    "lat": 25.0438973
  },
  {
    "id": "cinema_17",
    "name": "喜樂時代影城今日店",
    "type": "首輪",
    "address": "萬華區峨嵋街52號",
    "city": "臺北市",
    "district": "萬華區",
    "special": "",
    "original_address": "萬華區峨嵋街52號4樓",
    "lng": 121.5053281,
    "lat": 25.0436534
  },
  {
    "id": "cinema_18",
    "name": "百老匯數位影城",
    "type": "首輪",
    "address": "文山區羅斯福路四段200號",
    "city": "臺北市",
    "district": "文山區",
    "special": "",
    "original_address": "文山區羅斯福路四段200號3至5樓",
    "lng": 121.5369093,
    "lat": 25.0107917
  },
  {
    "id": "cinema_19",
    "name": "光點華山電影館",
    "type": "首輪藝術",
    "address": "中正區八德路一段1號",
    "city": "臺北市",
    "district": "中正區八德路一段1號（華山文創園區",
    "special": "",
    "original_address": "中正區八德路一段1號（華山文創園區中六電影館）",
    "lng": 121.5293005,
    "lat": 25.0432788
  },
  {
    "id": "cinema_20",
    "name": "台北長春國賓影城",
    "type": "首輪、首輪藝術",
    "address": "中山區長春路176號",
    "city": "臺北市",
    "district": "中山區",
    "special": "",
    "original_address": "中山區長春路176號（原長春戲院）",
    "lng": 121.5341874,
    "lat": 25.0545942
  },
  {
    "id": "cinema_21",
    "name": "台北欣欣秀泰影城",
    "type": "首輪",
    "address": "中山區林森北路247號",
    "city": "臺北市",
    "district": "中山區",
    "special": "ScreenX廳",
    "original_address": "中山區林森北路247號",
    "lng": 121.525751,
    "lat": 25.0541282
  },
  {
    "id": "cinema_22",
    "name": "光點台北",
    "type": "首輪藝術",
    "address": "中山區中山北路二段18號",
    "city": "臺北市",
    "district": "中山區",
    "special": "",
    "original_address": "中山區中山北路二段18號",
    "lng": 121.5223736,
    "lat": 25.0534605
  },
  {
    "id": "cinema_23",
    "name": "美麗華大直影城",
    "type": "首輪",
    "address": "中山區敬業三路22號",
    "city": "臺北市",
    "district": "中山區",
    "special": "IMAXAURO11.1Dolby Cinema",
    "original_address": "中山區敬業三路22號（美麗華百樂園）6至9樓",
    "lng": 121.5564366,
    "lat": 25.0827115
  },
  {
    "id": "cinema_24",
    "name": "美麗新大直皇家影城",
    "type": "首輪",
    "address": "中山區北安路780號",
    "city": "臺北市",
    "district": "中山區",
    "special": "全院Royal Cinemas皇家影城",
    "original_address": "中山區北安路780號（美麗新廣場大直館）B2",
    "lng": 121.5538124,
    "lat": 25.0848679
  },
  {
    "id": "cinema_25",
    "name": "台北天母新光影城",
    "type": "首輪",
    "address": "士林區忠誠路二段202號",
    "city": "臺北市",
    "district": "士林區",
    "special": "OSIM天王廳",
    "original_address": "士林區忠誠路二段202號（新光三越天母店B館）4樓",
    "lng": 121.5338221,
    "lat": 25.1172459
  },
  {
    "id": "cinema_26",
    "name": "陽明戲院（2019/9/15起暫停營業）",
    "type": "首輪",
    "address": "士林區文林路113號",
    "city": "臺北市",
    "district": "士林區",
    "special": "",
    "original_address": "士林區文林路113號",
    "lng": 121.5261123,
    "lat": 25.0882555
  },
  {
    "id": "cinema_27",
    "name": "湳山戲院（2022/12/1起暫停營業）",
    "type": "二輪",
    "address": "大安區通化街24巷",
    "city": "臺北市",
    "district": "大安區",
    "special": "",
    "original_address": "大安區通化街24巷1號",
    "lng": 121.5536864,
    "lat": 25.0316964
  },
  {
    "id": "cinema_28",
    "name": "景美佳佳戲院",
    "type": "二輪",
    "address": "文山區羅斯福路六段403號",
    "city": "臺北市",
    "district": "文山區",
    "special": "",
    "original_address": "文山區羅斯福路六段403號4樓",
    "lng": 121.5407253,
    "lat": 24.991878
  },
  {
    "id": "cinema_29",
    "name": "中和環球威秀影城",
    "type": "首輪",
    "address": "中和區中山路三段122號",
    "city": "新北市",
    "district": "中和區",
    "special": "",
    "original_address": "中和區中山路三段122號（環球新北中和）4樓",
    "lng": 121.4747785,
    "lat": 25.0066731
  },
  {
    "id": "cinema_30",
    "name": "喜樂時代影城永和店",
    "type": "首輪",
    "address": "永和區中山路一段238號",
    "city": "新北市",
    "district": "永和區",
    "special": "",
    "original_address": "永和區中山路一段238號（比漾廣場）4樓",
    "lng": 121.5071861,
    "lat": 25.0077276
  },
  {
    "id": "cinema_31",
    "name": "鴻金寶麻吉影城",
    "type": "首輪",
    "address": "新莊區民安路188巷",
    "city": "新北市",
    "district": "新莊區",
    "special": "",
    "original_address": "新莊區民安路188巷5號4樓",
    "lng": 121.4249651,
    "lat": 25.0233599
  },
  {
    "id": "cinema_32",
    "name": "晶冠廣場國賓影城",
    "type": "首輪",
    "address": "新莊區五工路66號",
    "city": "新北市",
    "district": "新莊區",
    "special": "",
    "original_address": "新莊區五工路66號（新莊晶冠廣場）3、4樓",
    "lng": 121.4585994,
    "lat": 25.0638243
  },
  {
    "id": "cinema_33",
    "name": "美麗新宏匯影城",
    "type": "首輪",
    "address": "新莊區新北大道四段3號",
    "city": "新北市",
    "district": "新莊區",
    "special": "Royal Cinemas皇家影城",
    "original_address": "新莊區新北大道四段3號（宏匯廣場）8至10樓",
    "lng": 121.4495726,
    "lat": 25.0596783
  },
  {
    "id": "cinema_34",
    "name": "國家電影及視聽文化中心",
    "type": "影展",
    "address": "新莊區文藝街2號",
    "city": "新北市",
    "district": "新莊區",
    "special": "",
    "original_address": "新莊區文藝街2號",
    "lng": 121.4178347,
    "lat": 25.0265985
  },
  {
    "id": "cinema_35",
    "name": "天台影城",
    "type": "首輪",
    "address": "三重區重新路二段78號",
    "city": "新北市",
    "district": "三重區",
    "special": "",
    "original_address": "三重區重新路二段78號（天台廣場）4樓",
    "lng": 121.4974781,
    "lat": 25.0617709
  },
  {
    "id": "cinema_36",
    "name": "林口昕境國賓影城",
    "type": "首輪",
    "address": "林口區文化三路一段402巷",
    "city": "新北市",
    "district": "林口區",
    "special": "AURO11.1、D-BOX座椅、Dolby Atmos",
    "original_address": "林口區文化三路一段402巷2號（林口昕境廣場）4樓",
    "lng": 121.3688045,
    "lat": 25.0740878
  },
  {
    "id": "cinema_37",
    "name": "林口MITSUI OUTLET PARK威秀影城",
    "type": "首輪",
    "address": "林口區文化三路一段356號",
    "city": "新北市",
    "district": "林口區",
    "special": "4DX、Mappa廳",
    "original_address": "林口區文化三路一段356號（MITSUI OUTLET PARK 林口）3樓",
    "lng": 121.3653309,
    "lat": 25.0713425
  },
  {
    "id": "cinema_38",
    "name": "美麗新淡海影城（2024/12/30起暫停營業）",
    "type": "首輪",
    "address": "淡水區義山路二段303號",
    "city": "新北市",
    "district": "淡水區",
    "special": "4K雷射巨幕廳+Dolby Atmos",
    "original_address": "淡水區義山路二段303號（美麗新廣場淡海館）2樓",
    "lng": 121.438789,
    "lat": 25.199168
  },
  {
    "id": "cinema_39",
    "name": "淡水禮萊國賓影城",
    "type": "首輪",
    "address": "淡水區中正路一段2號",
    "city": "新北市",
    "district": "淡水區",
    "special": "",
    "original_address": "淡水區中正路一段2號（淡水禮萊廣場）",
    "lng": 121.4297257,
    "lat": 25.1766032
  },
  {
    "id": "cinema_40",
    "name": "板橋大遠百威秀影城",
    "type": "首輪",
    "address": "板橋區新站路28號",
    "city": "新北市",
    "district": "板橋區",
    "special": "IMAX",
    "original_address": "板橋區新站路28號（板橋大遠百）10樓",
    "lng": 121.4669037,
    "lat": 25.0136061
  },
  {
    "id": "cinema_41",
    "name": "板橋秀泰影城",
    "type": "首輪",
    "address": "板橋區縣民大道二段3號",
    "city": "新北市",
    "district": "板橋區",
    "special": "Dolby Atmos",
    "original_address": "板橋區縣民大道二段3號（麗寶百貨廣場）2至4樓",
    "lng": 121.4619601,
    "lat": 25.0123547
  },
  {
    "id": "cinema_42",
    "name": "府中15新北市紀錄片放映院",
    "type": "首輪紀錄片",
    "address": "板橋區府中路15號",
    "city": "新北市",
    "district": "板橋區",
    "special": "",
    "original_address": "板橋區府中路15號B1",
    "lng": 121.4596142,
    "lat": 25.0093886
  },
  {
    "id": "cinema_43",
    "name": "樹林秀泰影城",
    "type": "首輪",
    "address": "樹林區樹新路40-6號",
    "city": "新北市",
    "district": "樹林區",
    "special": "巨幕廳",
    "original_address": "樹林區樹新路40-6號（秀泰生活樹林店）8樓",
    "lng": 121.4284421,
    "lat": 24.9954547
  },
  {
    "id": "cinema_44",
    "name": "土城秀泰影城",
    "type": "首輪",
    "address": "土城區學府路二段210號",
    "city": "新北市",
    "district": "土城區",
    "special": "",
    "original_address": "土城區學府路二段210號（日月光廣場 ）1樓",
    "lng": 121.445079,
    "lat": 24.9788137
  },
  {
    "id": "cinema_45",
    "name": "新店裕隆城威秀影城",
    "type": "首輪",
    "address": "新店區中興路三段70號",
    "city": "新北市",
    "district": "新店區",
    "special": "IMAX",
    "original_address": "新店區中興路三段70號（裕隆城）6~7樓",
    "lng": 121.546478,
    "lat": 24.978061
  },
  {
    "id": "cinema_46",
    "name": "桃園統領威秀影城",
    "type": "首輪",
    "address": "桃園區中正路61號",
    "city": "桃園市",
    "district": "桃園區",
    "special": "",
    "original_address": "桃園區中正路61號（統領廣場）9樓",
    "lng": 121.3124309,
    "lat": 24.9910545
  },
  {
    "id": "cinema_47",
    "name": "桃園桃知道威秀影城",
    "type": "首輪、首輪藝術",
    "address": "桃園區南平路301號",
    "city": "桃園市",
    "district": "桃園區",
    "special": "",
    "original_address": "桃園區南平路301號（桃知道GELEVEN PLAZA）4樓",
    "lng": 121.3001204,
    "lat": 25.0186369
  },
  {
    "id": "cinema_48",
    "name": "桃園站前in89統領影城",
    "type": "首輪",
    "address": "桃園區中正路56號",
    "city": "桃園市",
    "district": "桃園區",
    "special": "COACH 沙發座椅",
    "original_address": "桃園區中正路56號",
    "lng": 121.3128825,
    "lat": 24.9912144
  },
  {
    "id": "cinema_49",
    "name": "八德置地國賓影城",
    "type": "首輪",
    "address": "八德區介壽路一段728號",
    "city": "桃園市",
    "district": "八德區",
    "special": "D-BOX座椅、Dolby Atmos",
    "original_address": "八德區介壽路一段728號（置地生活廣場）3樓",
    "lng": 121.2987533,
    "lat": 24.9650432
  },
  {
    "id": "cinema_50",
    "name": "美麗新台茂影城",
    "type": "首輪",
    "address": "蘆竹區南崁路一段112號",
    "city": "桃園市",
    "district": "蘆竹區",
    "special": "IMAX、Royal Cinemas皇家影城",
    "original_address": "蘆竹區南崁路一段112號（台茂購物中心）7樓",
    "lng": 121.2885645,
    "lat": 25.0536603
  },
  {
    "id": "cinema_51",
    "name": "桃園青埔新光影城",
    "type": "首輪",
    "address": "中壢區春德路107號",
    "city": "桃園市",
    "district": "中壢區",
    "special": "Dolby Cinema、LUXE + Dolby ATMOS、ACG動漫劇場、Sealy 席伊麗廳、OSIM天王廳",
    "original_address": "中壢區春德路107號（置地廣場·桃園）3至5樓",
    "lng": 121.213604,
    "lat": 25.0166342
  },
  {
    "id": "cinema_52",
    "name": "喜樂時代影城桃園A19店",
    "type": "首輪",
    "address": "中壢區高鐵南路二段352號",
    "city": "桃園市",
    "district": "中壢區",
    "special": "設有16間影廳",
    "original_address": "中壢區高鐵南路二段352號（環球購物中心）4樓",
    "lng": 121.2020945,
    "lat": 25.002132
  },
  {
    "id": "cinema_53",
    "name": "SBC星橋國際影城",
    "type": "首輪",
    "address": "中壢區中園路二段501號",
    "city": "桃園市",
    "district": "中壢區",
    "special": "設有20間影廳",
    "original_address": "中壢區中園路二段501號（大江國際購物中心）5樓",
    "lng": 121.2284747,
    "lat": 25.0015283
  },
  {
    "id": "cinema_54",
    "name": "威尼斯影城",
    "type": "首輪",
    "address": "中壢區九和一街48號",
    "city": "桃園市",
    "district": "中壢區",
    "special": "Dolby Atmos、水影威尼斯",
    "original_address": "中壢區九和一街48號3樓",
    "lng": 121.2242637,
    "lat": 24.9615314
  },
  {
    "id": "cinema_55",
    "name": "中壢光影電影館",
    "type": "影展",
    "address": "中壢區龍清街116巷",
    "city": "桃園市",
    "district": "中壢區",
    "special": "沙發座椅",
    "original_address": "中壢區龍清街116巷31號",
    "lng": 121.2377328,
    "lat": 24.9356249
  },
  {
    "id": "cinema_56",
    "name": "桃園光影文化館",
    "type": "影展",
    "address": "桃園區埔新路12號",
    "city": "桃園市",
    "district": "桃園區",
    "special": "沙發座椅",
    "original_address": "桃園區埔新路12號",
    "lng": 121.3074644,
    "lat": 24.9991882
  },
  {
    "id": "cinema_57",
    "name": "民和戲院（2020/4/6起暫停營業）",
    "type": "二輪",
    "address": "八德區廣福路80號",
    "city": "桃園市",
    "district": "八德區",
    "special": "",
    "original_address": "八德區廣福路80號4樓",
    "lng": 121.2975686,
    "lat": 24.9590558
  },
  {
    "id": "cinema_58",
    "name": "百老匯數位影城",
    "type": "首輪",
    "address": "竹北市自強南路36號",
    "city": "新竹縣",
    "district": "",
    "special": "RGB純雷射旗艦廳 Dolby Atmos VIP影廳",
    "original_address": "竹北市自強南路36號（享平方ShownSquare）3至5樓",
    "lng": 121.0271594,
    "lat": 24.8188908
  },
  {
    "id": "cinema_59",
    "name": "新竹大遠百威秀影城",
    "type": "首輪",
    "address": "東區西大路323號",
    "city": "新竹市",
    "district": "東區",
    "special": "4DX、GOLD CLASS",
    "original_address": "東區西大路323號（新竹大遠百）8樓",
    "lng": 120.9649054,
    "lat": 24.8019453
  },
  {
    "id": "cinema_60",
    "name": "新竹巨城威秀影城",
    "type": "首輪",
    "address": "東區民權路176號",
    "city": "新竹市",
    "district": "東區",
    "special": "IMAX",
    "original_address": "東區民權路176號（Big City遠東巨城購物中心）4樓之3",
    "lng": 120.9744905,
    "lat": 24.8098549
  },
  {
    "id": "cinema_61",
    "name": "尚順威秀影城",
    "type": "首輪",
    "address": "頭份市中央路105號",
    "city": "苗栗縣",
    "district": "",
    "special": "",
    "original_address": "頭份市中央路105號（尚順購物中心）7樓",
    "lng": 120.903999,
    "lat": 24.6890453
  },
  {
    "id": "cinema_62",
    "name": "台中中港新光影城（因受氣爆事故影響於2025/2/13起暫停營業）",
    "type": "首輪",
    "address": "西屯區臺灣大道三段301號",
    "city": "臺中市",
    "district": "西屯區",
    "special": "MX4D+Dolby Atmos、Dolby Atmos、LUXE A RealD Experience",
    "original_address": "西屯區臺灣大道三段301號（新光三越台中中港店）13至14樓",
    "lng": 120.6434748,
    "lat": 24.1647673
  },
  {
    "id": "cinema_63",
    "name": "台中大遠百威秀影城",
    "type": "首輪",
    "address": "西屯區臺灣大道三段251號",
    "city": "臺中市",
    "district": "西屯區",
    "special": "IMAX",
    "original_address": "西屯區臺灣大道三段251號（台中大遠百）13至14樓",
    "lng": 120.6445269,
    "lat": 24.164305
  },
  {
    "id": "cinema_64",
    "name": "MUVIE CINEMAS 台中TIGER CITY",
    "type": "首輪",
    "address": "西屯區河南路三段120-1號",
    "city": "臺中市",
    "district": "西屯區",
    "special": "TITAN巨幕廳、GOLD CLASS",
    "original_address": "西屯區河南路三段120-1號（老虎城購物中心）4至8樓",
    "lng": 120.6377975,
    "lat": 24.1645018
  },
  {
    "id": "cinema_65",
    "name": "台中文心秀泰影城",
    "type": "首輪",
    "address": "南屯區文心南路289號",
    "city": "臺中市",
    "district": "南屯區",
    "special": "ScreenX廳丹普廳LG LED CINEMA + Dolby Atmos",
    "original_address": "南屯區文心南路289號（秀泰生活台中文心店）7至8樓",
    "lng": 120.6455746,
    "lat": 24.1297105
  },
  {
    "id": "cinema_66",
    "name": "台中站前秀泰影城",
    "type": "首輪",
    "address": "東區南京路76、66號",
    "city": "臺中市",
    "district": "東區",
    "special": "ScreenX廳獨享廳LOVE廳迪士尼廳",
    "original_address": "東區南京路76、66號（秀泰生活台中站前店）S1館4樓、S2館4樓",
    "lng": 120.6897725,
    "lat": 24.1405897
  },
  {
    "id": "cinema_67",
    "name": "台中大魯閣新時代威秀影城",
    "type": "首輪",
    "address": "東區復興路四段186號",
    "city": "臺中市",
    "district": "東區",
    "special": "Dolby Atmos、口述影像（AD）",
    "original_address": "東區復興路四段186號（大魯閣新時代購物中心）4至5樓",
    "lng": 120.6877477,
    "lat": 24.1357726
  },
  {
    "id": "cinema_68",
    "name": "王牌映畫影城",
    "type": "首輪",
    "address": "西區臺灣大道二段459號",
    "city": "臺中市",
    "district": "西區",
    "special": "Cine Art 藝術主題影廳、Cine Anime 動畫主題影廳",
    "original_address": "西區臺灣大道二段459號（廣三崇光百貨）18樓",
    "lng": 120.6617994,
    "lat": 24.15531
  },
  {
    "id": "cinema_69",
    "name": "台中忠孝國賓影城（2021/10/25起暫停營業）",
    "type": "首輪",
    "address": "南區忠孝路163號",
    "city": "臺中市",
    "district": "南區",
    "special": "",
    "original_address": "南區忠孝路163號",
    "lng": 120.6830678,
    "lat": 24.13013
  },
  {
    "id": "cinema_70",
    "name": "日日新影城",
    "type": "首輪",
    "address": "中區中華路1段58號",
    "city": "臺中市",
    "district": "中區",
    "special": "至尊廳（BARCO雷射4K＋JBL）、Dolby Atmos",
    "original_address": "中區中華路1段58號",
    "lng": 120.6765845,
    "lat": 24.1457421
  },
  {
    "id": "cinema_71",
    "name": "親親影城",
    "type": "首輪",
    "address": "北區北屯路14號",
    "city": "臺中市",
    "district": "北區",
    "special": "",
    "original_address": "北區北屯路14號",
    "lng": 120.6920359,
    "lat": 24.1603348
  },
  {
    "id": "cinema_72",
    "name": "台中豐原in89豪華影城",
    "type": "首輪",
    "address": "豐原區成功路500號",
    "city": "臺中市",
    "district": "豐原區",
    "special": "COACH沙發座椅、BOOMBOOM親子影廳",
    "original_address": "豐原區成功路500號（家樂福豐原店）5樓",
    "lng": 120.7064332,
    "lat": 24.2522311
  },
  {
    "id": "cinema_73",
    "name": "時代數位3D影城",
    "type": "首輪",
    "address": "清水區光復街65號",
    "city": "臺中市",
    "district": "清水區",
    "special": "3D",
    "original_address": "清水區光復街65號3樓（1館）、中山路339號3至5樓（2館）",
    "lng": 120.5751552,
    "lat": 24.2711111
  },
  {
    "id": "cinema_74",
    "name": "台中麗寶秀泰影城",
    "type": "首輪",
    "address": "后里區月眉東路二段181號",
    "city": "臺中市",
    "district": "后里區月眉東路二段181號（麗寶OUTLET MALLD區",
    "special": "",
    "original_address": "后里區月眉東路二段181號（麗寶OUTLET MALLD區）3樓",
    "lng": 120.7022884,
    "lat": 24.3262443
  },
  {
    "id": "cinema_75",
    "name": "全球影城",
    "type": "二輪",
    "address": "西區中華路一段1-1號",
    "city": "臺中市",
    "district": "西區",
    "special": "",
    "original_address": "西區中華路一段1-1號",
    "lng": 120.6725727,
    "lat": 24.1413496
  },
  {
    "id": "cinema_76",
    "name": "員林影城",
    "type": "首輪",
    "address": "員林市南昌路39號",
    "city": "彰化縣",
    "district": "",
    "special": "Dolby Atmos",
    "original_address": "員林市南昌路39號3樓",
    "lng": 120.5730925,
    "lat": 23.95421
  },
  {
    "id": "cinema_77",
    "name": "南投戲院",
    "type": "首輪",
    "address": "南投市大同街87號",
    "city": "南投縣",
    "district": "",
    "special": "",
    "original_address": "南投市大同街87號",
    "lng": 120.6878996,
    "lat": 23.907958
  },
  {
    "id": "cinema_78",
    "name": "埔里山明數位3D電影院",
    "type": "首輪",
    "address": "埔里鎮中山路二段289號",
    "city": "南投縣",
    "district": "埔里鎮",
    "special": "",
    "original_address": "埔里鎮中山路二段289號5樓",
    "lng": 120.968008,
    "lat": 23.965491
  },
  {
    "id": "cinema_79",
    "name": "環球中華影城",
    "type": "首輪",
    "address": "斗六市雲林路二段19號",
    "city": "雲林縣",
    "district": "",
    "special": "沙發座椅",
    "original_address": "斗六市雲林路二段19號",
    "lng": 120.5357235,
    "lat": 23.7059704
  },
  {
    "id": "cinema_80",
    "name": "雲林北港秀泰影城",
    "type": "首輪",
    "address": "北港鎮華南路101號",
    "city": "雲林縣",
    "district": "北港鎮",
    "special": "",
    "original_address": "北港鎮華南路101號（家樂福北港店）2樓",
    "lng": 120.3002099,
    "lat": 23.5718802
  },
  {
    "id": "cinema_81",
    "name": "嘉年華影城",
    "type": "首輪",
    "address": "西區仁愛路443號",
    "city": "嘉義市",
    "district": "西區",
    "special": "VIP尊榮廳",
    "original_address": "西區仁愛路443號1樓、4樓",
    "lng": 120.4418438,
    "lat": 23.4780402
  },
  {
    "id": "cinema_82",
    "name": "嘉義秀泰影城",
    "type": "首輪",
    "address": "西區文化路299號",
    "city": "嘉義市",
    "district": "西區",
    "special": "4K雷射超級巨幕廳",
    "original_address": "西區文化路299號（秀泰生活嘉義店）4樓",
    "lng": 120.4476782,
    "lat": 23.4852891
  },
  {
    "id": "cinema_83",
    "name": "嘉義影食滙in89豪華影城",
    "type": "首輪、科教",
    "address": "東區民族路328號",
    "city": "嘉義市",
    "district": "東區",
    "special": "IMAX、MX4D、LUXE + Dolby Atmos、COACH+、BOOMBOOM親子影廳",
    "original_address": "東區民族路328號",
    "lng": 120.4527315,
    "lat": 23.4763755
  },
  {
    "id": "cinema_84",
    "name": "台南大遠百威秀影城",
    "type": "首輪",
    "address": "中西區公園路60號",
    "city": "臺南市",
    "district": "中西區",
    "special": "4DX",
    "original_address": "中西區公園路60號（台南大遠百公園店）5至13樓",
    "lng": 120.205918,
    "lat": 22.9953279
  },
  {
    "id": "cinema_85",
    "name": "台南南紡威秀影城",
    "type": "首輪",
    "address": "東區中華東路一段366號",
    "city": "臺南市",
    "district": "東區",
    "special": "IMAX、GOLD CLASS",
    "original_address": "東區中華東路一段366號（南紡購物中心）A1館5樓、A2館B1",
    "lng": 120.2329698,
    "lat": 22.9908334
  },
  {
    "id": "cinema_86",
    "name": "台南Focus威秀影城",
    "type": "首輪",
    "address": "中西區中山路166號",
    "city": "臺南市",
    "district": "中西區",
    "special": "",
    "original_address": "中西區中山路166號（Focus時尚流行館）11至13樓",
    "lng": 120.2102016,
    "lat": 22.9955357
  },
  {
    "id": "cinema_87",
    "name": "台南西門新光影城",
    "type": "首輪",
    "address": "中西區西門路一段658號",
    "city": "臺南市",
    "district": "中西區",
    "special": "LUXE A RealD Experience",
    "original_address": "中西區西門路一段658號（新光三越台南新天地）7至9樓",
    "lng": 120.1977035,
    "lat": 22.9868434
  },
  {
    "id": "cinema_88",
    "name": "台南仁德秀泰影城",
    "type": "首輪",
    "address": "仁德區大同路三段759號",
    "city": "臺南市",
    "district": "仁德區",
    "special": "",
    "original_address": "仁德區大同路三段759號（家樂福新仁店）2樓",
    "lng": 120.2202612,
    "lat": 22.9473583
  },
  {
    "id": "cinema_89",
    "name": "台南國賓影城",
    "type": "首輪",
    "address": "東區中華東路一段66號",
    "city": "臺南市",
    "district": "東區",
    "special": "D-BOX座椅、金鑽貴賓廳",
    "original_address": "東區中華東路一段66號",
    "lng": 120.2342872,
    "lat": 22.9962865
  },
  {
    "id": "cinema_90",
    "name": "南台影城",
    "type": "首輪",
    "address": "中西區友愛街317號",
    "city": "臺南市",
    "district": "中西區",
    "special": "",
    "original_address": "中西區友愛街317號",
    "lng": 120.195206,
    "lat": 22.992277
  },
  {
    "id": "cinema_91",
    "name": "全美戲院（2025/3/2起暫停營業）",
    "type": "二輪",
    "address": "中西區永福路二段187號",
    "city": "臺南市",
    "district": "中西區",
    "special": "",
    "original_address": "中西區永福路二段187號",
    "lng": 120.2015038,
    "lat": 22.9951669
  },
  {
    "id": "cinema_92",
    "name": "今日戲院（2024/2/23起暫停營業）",
    "type": "二輪",
    "address": "中西區中正路249號",
    "city": "臺南市",
    "district": "中西區",
    "special": "",
    "original_address": "中西區中正路249號",
    "lng": 120.1969269,
    "lat": 22.9926448
  },
  {
    "id": "cinema_93",
    "name": "麻豆戲院",
    "type": "首輪",
    "address": "麻豆區興中路106號",
    "city": "臺南市",
    "district": "麻豆區",
    "special": "",
    "original_address": "麻豆區興中路106號",
    "lng": 120.2512874,
    "lat": 23.1836018
  },
  {
    "id": "cinema_94",
    "name": "高雄大遠百威秀影城",
    "type": "首輪",
    "address": "苓雅區三多四路21號",
    "city": "高雄市",
    "district": "苓雅區",
    "special": "4DX、IMAX、GOLD CLASS",
    "original_address": "苓雅區三多四路21號（高雄大遠百）13至16樓",
    "lng": 120.3043143,
    "lat": 22.612772
  },
  {
    "id": "cinema_95",
    "name": "高雄SKM Park國賓影城",
    "type": "首輪",
    "address": "前鎮區中山四路100號",
    "city": "高雄市",
    "district": "前鎮區",
    "special": "D-BOX座椅、Dolby Atmos",
    "original_address": "前鎮區中山四路100號（SKM Park Outlets 高雄草衙）大道東3樓",
    "lng": 120.3292495,
    "lat": 22.5837017
  },
  {
    "id": "cinema_96",
    "name": "高雄義大國賓影城",
    "type": "首輪",
    "address": "大樹區學城路一段12號",
    "city": "高雄市",
    "district": "大樹區學城路一段12號（義大世界購物廣場）C區",
    "special": "D-BOX座椅、巨幕廳、金鑽貴賓廳",
    "original_address": "大樹區學城路一段12號（義大世界購物廣場）C區3樓",
    "lng": 120.404131,
    "lat": 22.7298705
  },
  {
    "id": "cinema_97",
    "name": "高雄大立in89豪華影城",
    "type": "首輪",
    "address": "前金區五福三路57號",
    "city": "高雄市",
    "district": "前金區",
    "special": "LOUNGE情人座、COACH 椅、BOOMBOOM草皮親子影廳、 COACH plus廳",
    "original_address": "前金區五福三路57號（大立百貨）A館9至10樓",
    "lng": 120.2983022,
    "lat": 22.6216273
  },
  {
    "id": "cinema_98",
    "name": "高雄鹽埕in89駁二電影院",
    "type": "首輪、首輪藝術",
    "address": "鹽埕區大勇路1號",
    "city": "高雄市",
    "district": "鹽埕區大勇路1號（駁二藝術特區",
    "special": "地墊親子DIY影廳",
    "original_address": "鹽埕區大勇路1號（駁二藝術特區）C1、C2倉庫",
    "lng": 120.2816865,
    "lat": 22.6199049
  },
  {
    "id": "cinema_99",
    "name": "台鋁影城",
    "type": "首輪",
    "address": "前鎮區忠勤路8號",
    "city": "高雄市",
    "district": "前鎮區",
    "special": "Dolby Atmos",
    "original_address": "前鎮區忠勤路8號（MLD台鋁生活商場）",
    "lng": 120.3036368,
    "lat": 22.6038083
  },
  {
    "id": "cinema_100",
    "name": "喜樂時代影城高雄總圖店",
    "type": "首輪、首輪藝術",
    "address": "前鎮區林森四路189號",
    "city": "高雄市",
    "district": "前鎮區",
    "special": "",
    "original_address": "前鎮區林森四路189號（高雄市立圖書館總館共構會展文創會館）2~4樓",
    "lng": 120.3023581,
    "lat": 22.6093366
  },
  {
    "id": "cinema_101",
    "name": "環球影城",
    "type": "首輪",
    "address": "苓雅區大順三路108號",
    "city": "高雄市",
    "district": "苓雅區",
    "special": "沙發座椅",
    "original_address": "苓雅區大順三路108號3樓",
    "lng": 120.3253294,
    "lat": 22.6321291
  },
  {
    "id": "cinema_102",
    "name": "高雄岡山秀泰影城",
    "type": "首輪",
    "address": "岡山區捷安路1巷",
    "city": "高雄市",
    "district": "岡山區",
    "special": "巨幕廳",
    "original_address": "岡山區捷安路1巷2號",
    "lng": 120.2995946,
    "lat": 22.7800913
  },
  {
    "id": "cinema_103",
    "name": "高雄夢時代秀泰影城",
    "type": "首輪",
    "address": "前鎮區中華五路789號",
    "city": "高雄市",
    "district": "前鎮區",
    "special": "ScreenX廳",
    "original_address": "前鎮區中華五路789號（統一夢時代購物中心）8樓",
    "lng": 120.3066338,
    "lat": 22.5949204
  },
  {
    "id": "cinema_104",
    "name": "內惟藝術中心",
    "type": "影展、首輪、首輪藝術",
    "address": "鼓山區馬卡道路329號",
    "city": "高雄市",
    "district": "鼓山區",
    "special": "沙發座椅",
    "original_address": "鼓山區馬卡道路329號",
    "lng": 120.282306,
    "lat": 22.6572033
  },
  {
    "id": "cinema_105",
    "name": "高雄市電影館",
    "type": "影展",
    "address": "鹽埕區河西路10號",
    "city": "高雄市",
    "district": "鹽埕區",
    "special": "沙發座椅",
    "original_address": "鹽埕區河西路10號",
    "lng": 120.2891009,
    "lat": 22.6226912
  },
  {
    "id": "cinema_106",
    "name": "屏東環球國賓影城",
    "type": "首輪",
    "address": "屏東市仁愛路90號",
    "city": "屏東縣",
    "district": "",
    "special": "D-BOX座椅",
    "original_address": "屏東市仁愛路90號（環球購物中心屏東店）6樓",
    "lng": 120.4936323,
    "lat": 22.6729913
  },
  {
    "id": "cinema_107",
    "name": "屏東數位影城",
    "type": "首輪",
    "address": "屏東市民生路248號",
    "city": "屏東縣",
    "district": "",
    "special": "",
    "original_address": "屏東市民生路248號",
    "lng": 120.4918867,
    "lat": 22.6703411
  },
  {
    "id": "cinema_108",
    "name": "新月豪華影城",
    "type": "首輪",
    "address": "宜蘭市民權路二段38巷",
    "city": "宜蘭縣",
    "district": "",
    "special": "Dolby Atmos",
    "original_address": "宜蘭市民權路二段38巷2號（蘭城新月廣場）",
    "lng": 121.7500403,
    "lat": 24.7543327
  },
  {
    "id": "cinema_109",
    "name": "日新戲院",
    "type": "首輪",
    "address": "羅東鎮中山西街17之1號",
    "city": "宜蘭縣",
    "district": "羅東鎮",
    "special": "",
    "original_address": "羅東鎮中山西街17之1號（本館）、公園路100號3樓（統一廳）",
    "lng": 121.769847,
    "lat": 24.6746021
  },
  {
    "id": "cinema_110",
    "name": "花蓮秀泰影城",
    "type": "首輪",
    "address": "花蓮市國聯五路69號",
    "city": "花蓮縣",
    "district": "",
    "special": "",
    "original_address": "花蓮市國聯五路69號7樓",
    "lng": 121.6053563,
    "lat": 23.9907537
  },
  {
    "id": "cinema_111",
    "name": "花蓮鐵道電影院",
    "type": "首輪藝術",
    "address": "花蓮市中山路71號",
    "city": "花蓮縣",
    "district": "",
    "special": "",
    "original_address": "花蓮市中山路71號",
    "lng": 121.610796,
    "lat": 23.9743952
  },
  {
    "id": "cinema_112",
    "name": "花蓮新天堂威秀影城",
    "type": "首輪",
    "address": "吉安鄉南濱路一段503號",
    "city": "花蓮縣",
    "district": "吉安鄉",
    "special": "IMAX",
    "original_address": "吉安鄉南濱路一段503號（花蓮新天堂樂園）3、4樓",
    "lng": 121.5954462,
    "lat": 23.9383926
  },
  {
    "id": "cinema_113",
    "name": "台東秀泰影城",
    "type": "首輪",
    "address": "台東市新生路93號",
    "city": "臺東縣",
    "district": "",
    "special": "",
    "original_address": "台東市新生路93號（秀泰生活台東店）",
    "lng": 121.147811,
    "lat": 22.7523536
  },
  {
    "id": "cinema_114",
    "name": "澎湖昇恆昌in89豪華數位影城",
    "type": "首輪",
    "address": "馬公市同和路158號",
    "city": "澎湖縣",
    "district": "",
    "special": "COACH VIP廳BoomBoom草地親子廳",
    "original_address": "馬公市同和路158號（Pier 3 三號港）4樓",
    "lng": 119.572237,
    "lat": 23.5671107
  },
  {
    "id": "cinema_115",
    "name": "金門昇恆昌國賓影城",
    "type": "首輪",
    "address": "金湖鎮太湖路二段198號",
    "city": "金門縣",
    "district": "金湖鎮",
    "special": "",
    "original_address": "金湖鎮太湖路二段198號（昇恆昌金湖廣場）6樓",
    "lng": 118.4183931,
    "lat": 24.4392039
  },
  {
    "id": "cinema_116",
    "name": "金獅影城",
    "type": "首輪",
    "address": "金湖鎮中山路8-8號",
    "city": "金門縣",
    "district": "金湖鎮",
    "special": "FAS 動座椅巨幕廳+Dolby Atmos",
    "original_address": "金湖鎮中山路8-8號（風獅爺商店街西棟）3樓",
    "lng": 118.4279933,
    "lat": 24.4376913
  }
]